{
  "spots": [
    {
      "name": "贡嘎雪山",
      "lat": 29.7961,
      "lng": 101.7628,
      "description": "蜀山之王，海拔7556米，川藏线折多山垭口可远眺其主峰。",
      "elevation": "7556米",
      "bestTime": "10-次年5月"
    },
    {
      "name": "新都桥",
      "lat": 30.0446,
      "lng": 101.4838,
      "description": "摄影师的天堂，秋季白杨林金黄，光影变幻莫测。",
      "elevation": "3630米",
      "bestTime": "9-11月（秋季）"
    },
    {
      "name": "理塘",
      "lat": 30.0031,
      "lng": 100.2681,
      "description": "世界高城，仓央嘉措的故乡，长青春科尔寺值得参拜。",
      "elevation": "4014米",
      "bestTime": "6-9月"
    },
    {
      "name": "稻城亚丁",
      "lat": 28.4328,
      "lng": 100.2994,
      "description": "最后的香格里拉，仙乃日、央迈勇、夏诺多吉三座神山守护。",
      "elevation": "3900米",
      "bestTime": "9-11月"
    },
    {
      "name": "怒江72拐",
      "lat": 30.0733,
      "lng": 97.2918,
      "description": "海拔4658米的业拉山盘山公路，72个弯道层层叠叠，是川藏线最壮观路段。",
      "elevation": "4658米",
      "bestTime": "全年（注意天气）"
    },
    {
      "name": "然乌湖",
      "lat": 29.4578,
      "lng": 96.9189,
      "description": "被誉为'人间仙湖'，湖水澄澈如镜，倒映着雪山和森林。",
      "elevation": "3800米",
      "bestTime": "5-10月"
    },
    {
      "name": "米堆冰川",
      "lat": 29.3125,
      "lng": 96.5561,
      "description": "中国最低海拔现代冰川，冰川下方有原始森林，形成独特的'冰川森林'景观。",
      "elevation": "2400米",
      "bestTime": "10-次年4月"
    },
    {
      "name": "鲁朗林海",
      "lat": 29.7716,
      "lng": 95.0206,
      "description": "被誉为'东方瑞士'，森林覆盖率高，草甸花海，石锅鸡是必尝美食。",
      "elevation": "3400米",
      "bestTime": "3-10月"
    },
    {
      "name": "南迦巴瓦峰",
      "lat": 29.6300,
      "lng": 95.0550,
      "description": "中国最美雪山，海拔7782米，色季拉山口是最佳观景点，需运气才能一睹真容。",
      "elevation": "7782米",
      "bestTime": "10-次年4月（少雨季）"
    },
    {
      "name": "巴松措",
      "lat": 29.9542,
      "lng": 93.9983,
      "description": "'神湖'之美，湖光山色相映成趣，湖心岛有唐代红教寺庙。",
      "elevation": "3538米",
      "bestTime": "3-5月（杜鹃花季）"
    },
    {
      "name": "拉萨布达拉宫",
      "lat": 29.6543,
      "lng": 91.1174,
      "description": "世界上海拔最高的古宫殿群，藏传佛教的圣地和象征。",
      "elevation": "3700米",
      "bestTime": "5-10月"
    }
  ],
  "route": [
    [30.5728, 104.0668],
    [30.0102, 103.0000],
    [29.8808, 102.2344],
    [30.0552, 101.9625],
    [30.0446, 101.4838],
    [29.9308, 101.0139],
    [29.7331, 100.9714],
    [30.0031, 100.2681],
    [28.4328, 100.2994],
    [30.0031, 100.2681],
    [30.0781, 99.2886],
    [29.6806, 98.5983],
    [29.7381, 97.8353],
    [30.0733, 97.2918],
    [29.6350, 96.9283],
    [29.4578, 96.9189],
    [29.3125, 96.5561],
    [29.8496, 95.5336],
    [29.7716, 95.0206],
    [29.6300, 94.9200],
    [29.6489, 94.3625],
    [29.9542, 93.9983],
    [29.8853, 93.2450],
    [29.7756, 92.7211],
    [29.6543, 91.1174]
  ]
}
